[
  {
    "openweatherId": 722437,
    "city": "Békéscsaba",
    "longitude": 21.1,
    "latitude": 46.683331
  },
  {
    "openweatherId": 3054643,
    "city": "Budapest",
    "longitude": 19.039909,
    "latitude": 47.498009
  },
  {
    "openweatherId": 721472,
    "city": "Debrecen",
    "longitude": 21.633329,
    "latitude": 47.533329
  },
  {
    "openweatherId": 721239,
    "city": "Eger",
    "longitude": 20.373289,
    "latitude": 47.902649
  },
  {
    "openweatherId": 3052009,
    "city": "Győr",
    "longitude": 17.63512,
    "latitude": 47.683331
  },
  {
    "openweatherId": 3050616,
    "city": "Kaposvár",
    "longitude": 17.799999,
    "latitude": 46.366669
  },
  {
    "openweatherId": 3050434,
    "city": "Kecskemet",
    "longitude": 19.69128,
    "latitude": 46.906181
  },
  {
    "openweatherId": 717582,
    "city": "Miskolc",
    "longitude": 20.783331,
    "latitude": 48.099998
  },
  {
    "openweatherId": 716935,
    "city": "Nyíregyháza",
    "longitude": 21.716709,
    "latitude": 47.955391
  },
  {
    "openweatherId": 3046526,
    "city": "Pécs",
    "longitude": 18.23333,
    "latitude": 46.083328
  },
  {
    "openweatherId": 3045643,
    "city": "Salgótarján",
    "longitude": 19.80303,
    "latitude": 48.098721
  },
  {
    "openweatherId": 715429,
    "city": "Szeged",
    "longitude": 20.148239,
    "latitude": 46.252998
  },
  {
    "openweatherId": 3044760,
    "city": "Szekszárd",
    "longitude": 18.709049,
    "latitude": 46.35014
  },
  {
    "openweatherId": 3043124,
    "city": "Székesfehérvár",
    "longitude": 18.41667,
    "latitude": 47.200001
  },
  {
    "openweatherId": 715126,
    "city": "Szolnok",
    "longitude": 20.200001,
    "latitude": 47.183331
  },
  {
    "openweatherId": 3044310,
    "city": "Szombathely",
    "longitude": 16.62155,
    "latitude": 47.230881
  },
  {
    "openweatherId": 3044082,
    "city": "Tatabánya",
    "longitude": 18.39325,
    "latitude": 47.584942
  },
  {
    "openweatherId": 3042929,
    "city": "Veszprém",
    "longitude": 17.911489,
    "latitude": 47.093269
  },
  {
    "openweatherId": 3042638,
    "city": "Zalaegerszeg",
    "longitude": 16.843889,
    "latitude": 46.84
  }
]
